{
  "date": "tisdag, 26e mars",
  "restaurants": [
    {
      "id": "1",
      "name": "Kolgas",
      "emoji": "游뚴",
      "description": "\"Gedigen\" svensk husmanskost.",
      "position": {
        "lat": "55.61277",
        "long": "12.99843"
      },
      "address": {
        "street": "Hans Michelsensgatan 1C",
        "postCode": "21120",
        "city": "MALM칐"
      },
      "distance": "0.08",
      "menuItems": [
        {
          "dish": "Gravad Lax med dillstuvad potatis och hovm칛stars친s"
        },
        {
          "dish": "Ostpanerad fl칛sk Noisette med ris, tomats친s och gr칬nsaker"
        }
      ]
    },
    {
      "id": "6",
      "name": "Niagara",
      "emoji": "游꼼",
      "description": "Erbjuder b친de lokalproducerad husman och asiatiskt.",
      "position": {
        "lat": "55.60881",
        "long": "12.99410"
      },
      "address": {
        "street": "Neptuniplan 1",
        "postCode": "21118",
        "city": "MALM칐"
      },
      "distance": "0.5",
      "menuItems": [
        {
          "dish": "Bakad fl칛sksida, choucroute, chorizo, senap, persilja"
        },
        {
          "dish": "K친ldolme, bakad silverl칬k, zucchini, rostad k친lsky, hasseln칬t (L)"
        },
        {
          "dish": "Indisk linsgryta Dahl, yoghurt, papadum och ris"
        },
        {
          "dish": "Kyckling curry masala, ris, yoghurt, pickles"
        },
        {
          "dish": "Varmr칬kt regnb친gslax, potatissallad, gr칬na 칛rtor, 칛ggmajjo, dill, citron"
        },
        {
          "dish": "Het r칛ksoppa, glasnudlar, bakat 칛gg"
        }
      ]
    },
    {
      "id": "2",
      "name": "Slagthuset",
      "emoji": "游꼤",
      "description": "Modern och n칛rproducerad husmanskost.",
      "position": {
        "lat": "55.61133",
        "long": "13.00281"
      },
      "address": {
        "street": "Carlsgatan 12E",
        "postCode": "21120",
        "city": "MALM칐"
      },
      "distance": "0.2",
      "menuItems": [
        {
          "dish": "Rostad Black Angus (oxe) med gremolata & bakade tomater."
        },
        {
          "dish": "Bakad kolja med dillgurka, sotad schalottenl칬k, mussels친s & senapsfr칬."
        },
        {
          "dish": "Rostad blomk친lssoppa p친 kokosmj칬lk med crudite & picklad l칬k."
        }
      ]
    },
    {
      "id": "4",
      "name": "Glasklart",
      "emoji": "游볭",
      "description": "Vanlig husmanskost.",
      "position": {
        "lat": "55.61525",
        "long": "12.99042"
      },
      "address": {
        "street": "Dockplatsen 1",
        "postCode": "21119",
        "city": "MALM칐"
      },
      "distance": "0.7",
      "menuItems": [
        {
          "dish": "Klassisk wallenbergare med gr칬na 칛rtor, potatispur칠, lingon och skirat sm칬r"
        },
        {
          "dish": "Gr칬nsaksfylld parmesangratinerad portabellosvamp med friterad klyftpotatis, palsternackschips och gr칛ddig tomats친s"
        }
      ]
    },
    {
      "id": "3",
      "name": "In The Pink",
      "emoji": "游",
      "description": "Soppor och hotpots, ekologiskt och vegetariskt.",
      "position": {
        "lat": "55.61018",
        "long": "13.00015"
      },
      "address": {
        "street": "R칛lsplatsen 3",
        "postCode": "21120",
        "city": "MALM칐"
      },
      "distance": "0.2",
      "menuItems": [
        {
          "dish": "En vegansk morots- och apelsinssoppa toppad med mungb칬nor och marinerad vitk친l."
        },
        {
          "dish": "Brasiliansk fiskgryta toppad med basilika och s칛songens gr칬na."
        }
      ]
    },
    {
      "id": "5",
      "name": "MiaMarias",
      "emoji": "游볮",
      "description": "Alltid tre r칛tter att v칛lja mellan: fisk, k칬tt, veg.",
      "position": {
        "lat": "55.61355",
        "long": "12.99189"
      },
      "address": {
        "street": "Isbergs gata 7",
        "postCode": "21119",
        "city": "MALM칐"
      },
      "distance": "0.5",
      "menuItems": [
        {
          "dish": "Kolja med saffranss친s, musslor och bakad spetsk친l."
        },
        {
          "dish": "Kinesisk r칬dbr칛sserad karr칠 (chili, sichuanpeppar, anis, kanel, soja). Serveras med fried rice och chilimajo."
        },
        {
          "dish": "Asiatisk s칬tpotatisbiff med picklad gurka och jordn칬tss친s samt pak choi."
        }
      ]
    }
  ]
}