{
  "date": "lördag, 16e mars",
  "restaurants": [
    {
      "name": "Kolgas",
      "position": {
        "lat": "55.61277",
        "long": "12.99843"
      },
      "address": {
        "street": "Hans Michelsensgatan 1C",
        "postCode": "21120",
        "city": "MALMÖ"
      },
      "menuItems": []
    },
    {
      "name": "In The Pink",
      "position": {
        "lat": "55.61018",
        "long": "13.00015"
      },
      "address": {
        "street": "Rälsplatsen 3",
        "postCode": "21120",
        "city": "MALMÖ"
      },
      "menuItems": [
        {
          "dish": "Vegansk  röd linssoppa med chili, vitlök, tomat, olivolja toppad med en citronyoghurt gjord på havre samt rostade pumpafrön och tångflingor."
        },
        {
          "dish": "Lyxig fiskgryta med färsk torsk, vildfångad lax och musslor med grädde, saffran, lök och morötter toppad med aioli."
        }
      ]
    },
    {
      "name": "Slagthuset",
      "position": {
        "lat": "55.61133",
        "long": "13.00281"
      },
      "address": {
        "street": "Carlsgatan 12E",
        "postCode": "21120",
        "city": "MALMÖ"
      },
      "menuItems": []
    },
    {
      "name": "Glasklart",
      "position": {
        "lat": "55.61525",
        "long": "12.99042"
      },
      "address": {
        "street": "Dockplatsen 1",
        "postCode": "21119",
        "city": "MALMÖ"
      },
      "menuItems": [
        {
          "dish": "Klassisk wallenbergare med gröna ärtor, potatispuré, lingon och skirat smör"
        },
        {
          "dish": "Fylld röd paprika med kryddig bolognese på soyafärs, gratinerad med mozzarella, serveras med mild yoghurtsås"
        }
      ]
    },
    {
      "name": "MiaMarias",
      "position": {
        "lat": "55.61355",
        "long": "12.99189"
      },
      "address": {
        "street": "Isbergs gata 7",
        "postCode": "21119",
        "city": "MALMÖ"
      },
      "menuItems": [
        {
          "dish": "Ugnsbakad lax med kål, lök, mandel och ruccola."
        },
        {
          "dish": "Långkokt högrev glaserad med paprika, senapsfrön och chili. Serveras med klyftpotatis och tomat- och melonsallad."
        },
        {
          "dish": "Burgare med aubergine, halloumi, krasse och ärtkräm."
        }
      ]
    }
  ]
}